{
  "version": 1,
  "venues": [
    {
      "venue_id": "brno_brno_central_bus_station",
      "name": "Brno Central Bus Station",
      "lat": 49.1858921,
      "lon": 16.616467,
      "radius_m": 200,
      "base_scenario": "train_station",
      "file": "cs-CZ/brno/brno_brno_central_bus_station.json"
    },
    {
      "venue_id": "brno_brno_christmas_market",
      "name": "Brno Christmas Market",
      "lat": 49.1922443,
      "lon": 16.6113382,
      "radius_m": 150,
      "base_scenario": "market",
      "file": "cs-CZ/brno/brno_brno_christmas_market.json"
    },
    {
      "venue_id": "brno_brno_dam_and_lakeside_recreation_area",
      "name": "Brno Dam and lakeside recreation area",
      "lat": 49.2520081,
      "lon": 16.4846138,
      "radius_m": 300,
      "base_scenario": "outdoors",
      "file": "cs-CZ/brno/brno_brno_dam_and_lakeside_recreation_area.json"
    },
    {
      "venue_id": "brno_brno_main_train_station",
      "name": "Brno Main Train Station",
      "lat": 49.1911221,
      "lon": 16.6131116,
      "radius_m": 200,
      "base_scenario": "train_station",
      "file": "cs-CZ/brno/brno_brno_main_train_station.json"
    },
    {
      "venue_id": "brno_brno_tourist_information_centre",
      "name": "Brno Tourist Information Centre",
      "lat": 49.1945319,
      "lon": 16.6075912,
      "radius_m": 100,
      "base_scenario": null,
      "file": "cs-CZ/brno/brno_brno_tourist_information_centre.json"
    },
    {
      "venue_id": "brno_brno_underground_labyrinth",
      "name": "Brno underground labyrinth",
      "lat": 49.1922443,
      "lon": 16.6113382,
      "radius_m": 200,
      "base_scenario": "museum",
      "file": "cs-CZ/brno/brno_brno_underground_labyrinth.json"
    },
    {
      "venue_id": "brno_brno_tuřany_airport",
      "name": "Brno-Tuřany Airport",
      "lat": 49.1524843,
      "lon": 16.6901166,
      "radius_m": 200,
      "base_scenario": "train_station",
      "file": "cs-CZ/brno/brno_brno_tuřany_airport.json"
    },
    {
      "venue_id": "brno_lokál_u_caipla",
      "name": "Lokál U Caipla",
      "lat": 49.1958728,
      "lon": 16.6094489,
      "radius_m": 75,
      "base_scenario": "restaurant",
      "file": "cs-CZ/brno/brno_lokál_u_caipla.json"
    },
    {
      "venue_id": "brno_lužánky_park",
      "name": "Lužánky Park",
      "lat": 49.2062421,
      "lon": 16.6059344,
      "radius_m": 300,
      "base_scenario": "outdoors",
      "file": "cs-CZ/brno/brno_lužánky_park.json"
    },
    {
      "venue_id": "brno_masarykova_shopping_street",
      "name": "Masarykova shopping street",
      "lat": 49.1922443,
      "lon": 16.6113382,
      "radius_m": 75,
      "base_scenario": "shopping",
      "file": "cs-CZ/brno/brno_masarykova_shopping_street.json"
    },
    {
      "venue_id": "brno_moravian_museum",
      "name": "Moravian Museum",
      "lat": 49.1954755,
      "lon": 16.6042526,
      "radius_m": 200,
      "base_scenario": "museum",
      "file": "cs-CZ/brno/brno_moravian_museum.json"
    },
    {
      "venue_id": "brno_old_town_historic_quarter",
      "name": "Old Town historic quarter",
      "lat": 49.1902539,
      "lon": 16.5943387,
      "radius_m": 1000,
      "base_scenario": "neighborhood",
      "file": "cs-CZ/brno/brno_old_town_historic_quarter.json"
    },
    {
      "venue_id": "brno_pegas_brewery_restaurant",
      "name": "Pegas Brewery Restaurant",
      "lat": 49.1793148,
      "lon": 16.6795459,
      "radius_m": 75,
      "base_scenario": "restaurant",
      "file": "cs-CZ/brno/brno_pegas_brewery_restaurant.json"
    },
    {
      "venue_id": "brno_technology_museum_of_brno",
      "name": "Technology Museum of Brno",
      "lat": 49.1922443,
      "lon": 16.6113382,
      "radius_m": 200,
      "base_scenario": "museum",
      "file": "cs-CZ/brno/brno_technology_museum_of_brno.json"
    },
    {
      "venue_id": "brno_vaňkovka_gallery",
      "name": "Vaňkovka Gallery",
      "lat": 49.1878337,
      "lon": 16.6147359,
      "radius_m": 75,
      "base_scenario": "shopping",
      "file": "cs-CZ/brno/brno_vaňkovka_gallery.json"
    },
    {
      "venue_id": "brno_veveří_district_and_castle_area",
      "name": "Veveří district and castle area",
      "lat": 49.2038545,
      "lon": 16.5947355,
      "radius_m": 1000,
      "base_scenario": "neighborhood",
      "file": "cs-CZ/brno/brno_veveří_district_and_castle_area.json"
    },
    {
      "venue_id": "brno_villa_tugendhat",
      "name": "Villa Tugendhat",
      "lat": 49.2071685,
      "lon": 16.6160617,
      "radius_m": 250,
      "base_scenario": "neighborhood",
      "file": "cs-CZ/brno/brno_villa_tugendhat.json"
    },
    {
      "venue_id": "brno_zelný_trh_cabbage_market",
      "name": "Zelný trh cabbage market",
      "lat": 49.1923102,
      "lon": 16.6089499,
      "radius_m": 75,
      "base_scenario": "restaurant",
      "file": "cs-CZ/brno/brno_zelný_trh_cabbage_market.json"
    },
    {
      "venue_id": "brno_špilberk_castle",
      "name": "Špilberk Castle",
      "lat": 49.1945043,
      "lon": 16.5993535,
      "radius_m": 250,
      "base_scenario": "neighborhood",
      "file": "cs-CZ/brno/brno_špilberk_castle.json"
    },
    {
      "venue_id": "karlovy_vary_café_pupp",
      "name": "Café Pupp",
      "lat": 50.2197051,
      "lon": 12.8790162,
      "radius_m": 75,
      "base_scenario": "restaurant",
      "file": "cs-CZ/karlovy_vary/karlovy_vary_café_pupp.json"
    },
    {
      "venue_id": "karlovy_vary_diana_funicular_upper_station_area",
      "name": "Diana Funicular Upper Station Area",
      "lat": 50.2190445,
      "lon": 12.8721531,
      "radius_m": 1000,
      "base_scenario": "neighborhood",
      "file": "cs-CZ/karlovy_vary/karlovy_vary_diana_funicular_upper_station_area.json"
    },
    {
      "venue_id": "karlovy_vary_diana_observation_tower",
      "name": "Diana Observation Tower",
      "lat": 50.2189819,
      "lon": 12.8722638,
      "radius_m": 300,
      "base_scenario": "outdoors",
      "file": "cs-CZ/karlovy_vary/karlovy_vary_diana_observation_tower.json"
    },
    {
      "venue_id": "karlovy_vary_grandhotel_pupp",
      "name": "Grandhotel Pupp",
      "lat": 50.2191472,
      "lon": 12.8787735,
      "radius_m": 250,
      "base_scenario": "neighborhood",
      "file": "cs-CZ/karlovy_vary/karlovy_vary_grandhotel_pupp.json"
    },
    {
      "venue_id": "karlovy_vary_hot_spring_colonnade",
      "name": "Hot Spring Colonnade",
      "lat": 50.2227304,
      "lon": 12.8834428,
      "radius_m": 250,
      "base_scenario": "neighborhood",
      "file": "cs-CZ/karlovy_vary/karlovy_vary_hot_spring_colonnade.json"
    },
    {
      "venue_id": "karlovy_vary_jan_becher_museum",
      "name": "Jan Becher Museum",
      "lat": 50.2303751,
      "lon": 12.8669808,
      "radius_m": 200,
      "base_scenario": "museum",
      "file": "cs-CZ/karlovy_vary/karlovy_vary_jan_becher_museum.json"
    },
    {
      "venue_id": "karlovy_vary_karlovy_vary_airport",
      "name": "Karlovy Vary Airport",
      "lat": 50.2021437,
      "lon": 12.913105,
      "radius_m": 200,
      "base_scenario": "train_station",
      "file": "cs-CZ/karlovy_vary/karlovy_vary_karlovy_vary_airport.json"
    },
    {
      "venue_id": "karlovy_vary_karlovy_vary_market_hall",
      "name": "Karlovy Vary Market Hall",
      "lat": 50.2313118,
      "lon": 12.852004,
      "radius_m": 150,
      "base_scenario": "market",
      "file": "cs-CZ/karlovy_vary/karlovy_vary_karlovy_vary_market_hall.json"
    },
    {
      "venue_id": "karlovy_vary_karlovy_vary_tourist_information_center",
      "name": "Karlovy Vary Tourist Information Center",
      "lat": 50.2188442,
      "lon": 12.8811559,
      "radius_m": 100,
      "base_scenario": null,
      "file": "cs-CZ/karlovy_vary/karlovy_vary_karlovy_vary_tourist_information_center.json"
    },
    {
      "venue_id": "karlovy_vary_karlovy_vary_train_station",
      "name": "Karlovy Vary Train Station",
      "lat": 50.2306216,
      "lon": 12.8701437,
      "radius_m": 200,
      "base_scenario": "train_station",
      "file": "cs-CZ/karlovy_vary/karlovy_vary_karlovy_vary_train_station.json"
    },
    {
      "venue_id": "karlovy_vary_lázně_v_shopping_street",
      "name": "Lázně V Shopping Street",
      "lat": 50.2302,
      "lon": 12.8726,
      "radius_m": 75,
      "base_scenario": "shopping",
      "file": "cs-CZ/karlovy_vary/karlovy_vary_lázně_v_shopping_street.json"
    },
    {
      "venue_id": "karlovy_vary_mill_colonnade",
      "name": "Mill Colonnade",
      "lat": 50.2252883,
      "lon": 12.881785,
      "radius_m": 250,
      "base_scenario": "neighborhood",
      "file": "cs-CZ/karlovy_vary/karlovy_vary_mill_colonnade.json"
    },
    {
      "venue_id": "karlovy_vary_moser_glass_museum",
      "name": "Moser Glass Museum",
      "lat": 50.2281683,
      "lon": 12.8375552,
      "radius_m": 200,
      "base_scenario": "museum",
      "file": "cs-CZ/karlovy_vary/karlovy_vary_moser_glass_museum.json"
    },
    {
      "venue_id": "karlovy_vary_restaurant_embassy",
      "name": "Restaurant Embassy",
      "lat": 50.2203605,
      "lon": 12.879927,
      "radius_m": 75,
      "base_scenario": "restaurant",
      "file": "cs-CZ/karlovy_vary/karlovy_vary_restaurant_embassy.json"
    },
    {
      "venue_id": "karlovy_vary_smetana_gardens",
      "name": "Smetana Gardens",
      "lat": 50.2293759,
      "lon": 12.8738538,
      "radius_m": 300,
      "base_scenario": "outdoors",
      "file": "cs-CZ/karlovy_vary/karlovy_vary_smetana_gardens.json"
    },
    {
      "venue_id": "karlovy_vary_spa_center_colonnade_district",
      "name": "Spa Center Colonnade District",
      "lat": 50.2252883,
      "lon": 12.881785,
      "radius_m": 1000,
      "base_scenario": "neighborhood",
      "file": "cs-CZ/karlovy_vary/karlovy_vary_spa_center_colonnade_district.json"
    },
    {
      "venue_id": "karlovy_vary_stará_louka_riverfront",
      "name": "Stará Louka Riverfront",
      "lat": 50.2212621,
      "lon": 12.8804554,
      "radius_m": 1000,
      "base_scenario": "neighborhood",
      "file": "cs-CZ/karlovy_vary/karlovy_vary_stará_louka_riverfront.json"
    },
    {
      "venue_id": "kutná_hora_barborská_street_promenade",
      "name": "Barborská Street Promenade",
      "lat": 49.9486561,
      "lon": 15.2681123,
      "radius_m": 300,
      "base_scenario": "outdoors",
      "file": "cs-CZ/kutná_hora/kutná_hora_barborská_street_promenade.json"
    },
    {
      "venue_id": "kutná_hora_czech_museum_of_silver",
      "name": "Czech Museum of Silver",
      "lat": 49.9476262,
      "lon": 15.2654703,
      "radius_m": 200,
      "base_scenario": "museum",
      "file": "cs-CZ/kutná_hora/kutná_hora_czech_museum_of_silver.json"
    },
    {
      "venue_id": "kutná_hora_dačický_house_restaurant",
      "name": "Dačický House Restaurant",
      "lat": 49.9483361,
      "lon": 15.2647139,
      "radius_m": 75,
      "base_scenario": "restaurant",
      "file": "cs-CZ/kutná_hora/kutná_hora_dačický_house_restaurant.json"
    },
    {
      "venue_id": "kutná_hora_gallery_of_central_bohemia_gask",
      "name": "Gallery of Central Bohemia GASK",
      "lat": 49.9486561,
      "lon": 15.2681123,
      "radius_m": 200,
      "base_scenario": "museum",
      "file": "cs-CZ/kutná_hora/kutná_hora_gallery_of_central_bohemia_gask.json"
    },
    {
      "venue_id": "kutná_hora_historic_center_and_unesco_zone",
      "name": "Historic Center and UNESCO Zone",
      "lat": 49.9449289,
      "lon": 15.2636465,
      "radius_m": 1000,
      "base_scenario": "neighborhood",
      "file": "cs-CZ/kutná_hora/kutná_hora_historic_center_and_unesco_zone.json"
    },
    {
      "venue_id": "kutná_hora_italian_court",
      "name": "Italian Court",
      "lat": 49.9482027,
      "lon": 15.2682055,
      "radius_m": 250,
      "base_scenario": "neighborhood",
      "file": "cs-CZ/kutná_hora/kutná_hora_italian_court.json"
    },
    {
      "venue_id": "kutná_hora_kutná_hora_tourist_information_center",
      "name": "Kutná Hora Tourist Information Center",
      "lat": 49.9486561,
      "lon": 15.2681123,
      "radius_m": 100,
      "base_scenario": null,
      "file": "cs-CZ/kutná_hora/kutná_hora_kutná_hora_tourist_information_center.json"
    },
    {
      "venue_id": "kutná_hora_kutná_hora_main_train_station",
      "name": "Kutná Hora main train station",
      "lat": 49.9619429,
      "lon": 15.3005986,
      "radius_m": 200,
      "base_scenario": "train_station",
      "file": "cs-CZ/kutná_hora/kutná_hora_kutná_hora_main_train_station.json"
    },
    {
      "venue_id": "kutná_hora_kutná_hora_sedlec_train_station",
      "name": "Kutná Hora-Sedlec train station",
      "lat": 49.9576753,
      "lon": 15.2903855,
      "radius_m": 200,
      "base_scenario": "train_station",
      "file": "cs-CZ/kutná_hora/kutná_hora_kutná_hora_sedlec_train_station.json"
    },
    {
      "venue_id": "kutná_hora_palackého_square_market",
      "name": "Palackého Square Market",
      "lat": 49.9486561,
      "lon": 15.2681123,
      "radius_m": 150,
      "base_scenario": "market",
      "file": "cs-CZ/kutná_hora/kutná_hora_palackého_square_market.json"
    },
    {
      "venue_id": "kutná_hora_sedlec_district",
      "name": "Sedlec District",
      "lat": 49.9617761,
      "lon": 15.2880921,
      "radius_m": 1000,
      "base_scenario": "neighborhood",
      "file": "cs-CZ/kutná_hora/kutná_hora_sedlec_district.json"
    },
    {
      "venue_id": "kutná_hora_sedlec_ossuary",
      "name": "Sedlec Ossuary",
      "lat": 49.9617761,
      "lon": 15.2880921,
      "radius_m": 250,
      "base_scenario": "neighborhood",
      "file": "cs-CZ/kutná_hora/kutná_hora_sedlec_ossuary.json"
    },
    {
      "venue_id": "kutná_hora_st_barbaras_church",
      "name": "St. Barbara's Church",
      "lat": 49.9449289,
      "lon": 15.2636465,
      "radius_m": 250,
      "base_scenario": "neighborhood",
      "file": "cs-CZ/kutná_hora/kutná_hora_st_barbaras_church.json"
    },
    {
      "venue_id": "kutná_hora_v_ruthardce_bakery",
      "name": "V Ruthardce Bakery",
      "lat": 49.9486561,
      "lon": 15.2681123,
      "radius_m": 75,
      "base_scenario": "restaurant",
      "file": "cs-CZ/kutná_hora/kutná_hora_v_ruthardce_bakery.json"
    },
    {
      "venue_id": "kutná_hora_vojna_memorial_park",
      "name": "Vojna Memorial Park",
      "lat": 49.9486561,
      "lon": 15.2681123,
      "radius_m": 300,
      "base_scenario": "outdoors",
      "file": "cs-CZ/kutná_hora/kutná_hora_vojna_memorial_park.json"
    },
    {
      "venue_id": "kutná_hora_vrchlice_valley",
      "name": "Vrchlice Valley",
      "lat": 49.9273758,
      "lon": 15.240336,
      "radius_m": 1000,
      "base_scenario": "neighborhood",
      "file": "cs-CZ/kutná_hora/kutná_hora_vrchlice_valley.json"
    },
    {
      "venue_id": "liberec_bedřichov_cross_country_skiing_district",
      "name": "Bedřichov cross-country skiing district",
      "lat": 50.7702648,
      "lon": 15.0583947,
      "radius_m": 1000,
      "base_scenario": "neighborhood",
      "file": "cs-CZ/liberec/liberec_bedřichov_cross_country_skiing_district.json"
    },
    {
      "venue_id": "liberec_botanical_garden_liberec",
      "name": "Botanical Garden Liberec",
      "lat": 50.7788572,
      "lon": 15.0747378,
      "radius_m": 300,
      "base_scenario": "outdoors",
      "file": "cs-CZ/liberec/liberec_botanical_garden_liberec.json"
    },
    {
      "venue_id": "liberec_cukrárna_křižík",
      "name": "Cukrárna Křižík",
      "lat": 50.7702648,
      "lon": 15.0583947,
      "radius_m": 75,
      "base_scenario": "restaurant",
      "file": "cs-CZ/liberec/liberec_cukrárna_křižík.json"
    },
    {
      "venue_id": "liberec_horní_rokytnice_nad_jizerou_mountain_resort_area",
      "name": "Horní Rokytnice nad Jizerou mountain resort area",
      "lat": 50.7702648,
      "lon": 15.0583947,
      "radius_m": 1000,
      "base_scenario": "neighborhood",
      "file": "cs-CZ/liberec/liberec_horní_rokytnice_nad_jizerou_mountain_resort_area.json"
    },
    {
      "venue_id": "liberec_jizera_mountains_nature_reserve",
      "name": "Jizera Mountains Nature Reserve",
      "lat": 50.8112458,
      "lon": 15.2048799,
      "radius_m": 300,
      "base_scenario": "outdoors",
      "file": "cs-CZ/liberec/liberec_jizera_mountains_nature_reserve.json"
    },
    {
      "venue_id": "liberec_liberec_bus_station",
      "name": "Liberec Bus Station",
      "lat": 50.7637113,
      "lon": 15.046704,
      "radius_m": 200,
      "base_scenario": "train_station",
      "file": "cs-CZ/liberec/liberec_liberec_bus_station.json"
    },
    {
      "venue_id": "liberec_liberec_main_train_station",
      "name": "Liberec Main Train Station",
      "lat": 50.7702648,
      "lon": 15.0583947,
      "radius_m": 200,
      "base_scenario": "train_station",
      "file": "cs-CZ/liberec/liberec_liberec_main_train_station.json"
    },
    {
      "venue_id": "liberec_liberec_market_hall",
      "name": "Liberec Market Hall",
      "lat": 50.7702648,
      "lon": 15.0583947,
      "radius_m": 150,
      "base_scenario": "market",
      "file": "cs-CZ/liberec/liberec_liberec_market_hall.json"
    },
    {
      "venue_id": "liberec_liberec_old_town_historic_quarter",
      "name": "Liberec Old Town historic quarter",
      "lat": 50.7700674,
      "lon": 15.0588941,
      "radius_m": 1000,
      "base_scenario": "neighborhood",
      "file": "cs-CZ/liberec/liberec_liberec_old_town_historic_quarter.json"
    },
    {
      "venue_id": "liberec_liberec_tourist_information_center",
      "name": "Liberec Tourist Information Center",
      "lat": 50.7594439,
      "lon": 14.5580036,
      "radius_m": 100,
      "base_scenario": null,
      "file": "cs-CZ/liberec/liberec_liberec_tourist_information_center.json"
    },
    {
      "venue_id": "liberec_liberec_town_hall",
      "name": "Liberec Town Hall",
      "lat": 50.7432657,
      "lon": 15.0926198,
      "radius_m": 250,
      "base_scenario": "neighborhood",
      "file": "cs-CZ/liberec/liberec_liberec_town_hall.json"
    },
    {
      "venue_id": "liberec_north_bohemian_museum",
      "name": "North Bohemian Museum",
      "lat": 50.7747337,
      "lon": 15.0686325,
      "radius_m": 200,
      "base_scenario": "museum",
      "file": "cs-CZ/liberec/liberec_north_bohemian_museum.json"
    },
    {
      "venue_id": "liberec_oc_forum_liberec",
      "name": "OC Forum Liberec",
      "lat": 50.7702648,
      "lon": 15.0583947,
      "radius_m": 75,
      "base_scenario": "shopping",
      "file": "cs-CZ/liberec/liberec_oc_forum_liberec.json"
    },
    {
      "venue_id": "liberec_pivovar_falkenštejn",
      "name": "Pivovar Falkenštejn",
      "lat": 50.7702648,
      "lon": 15.0583947,
      "radius_m": 75,
      "base_scenario": "restaurant",
      "file": "cs-CZ/liberec/liberec_pivovar_falkenštejn.json"
    },
    {
      "venue_id": "liberec_pražská_street_shopping_promenade",
      "name": "Pražská Street shopping promenade",
      "lat": 50.7702648,
      "lon": 15.0583947,
      "radius_m": 75,
      "base_scenario": "shopping",
      "file": "cs-CZ/liberec/liberec_pražská_street_shopping_promenade.json"
    },
    {
      "venue_id": "liberec_iqlandia_science_center",
      "name": "iQLANDIA Science Center",
      "lat": 50.7702648,
      "lon": 15.0583947,
      "radius_m": 200,
      "base_scenario": "museum",
      "file": "cs-CZ/liberec/liberec_iqlandia_science_center.json"
    },
    {
      "venue_id": "olomouc_archdiocesan_museum_olomouc",
      "name": "Archdiocesan Museum Olomouc",
      "lat": 49.5981131,
      "lon": 17.2613194,
      "radius_m": 200,
      "base_scenario": "museum",
      "file": "cs-CZ/olomouc/olomouc_archdiocesan_museum_olomouc.json"
    },
    {
      "venue_id": "olomouc_aventin_shopping_center",
      "name": "Aventin Shopping Center",
      "lat": 49.5940567,
      "lon": 17.251143,
      "radius_m": 75,
      "base_scenario": "shopping",
      "file": "cs-CZ/olomouc/olomouc_aventin_shopping_center.json"
    },
    {
      "venue_id": "olomouc_bezručovy_sady_riverside_promenade",
      "name": "Bezručovy sady Riverside Promenade",
      "lat": 49.5925049,
      "lon": 17.2558551,
      "radius_m": 1000,
      "base_scenario": "neighborhood",
      "file": "cs-CZ/olomouc/olomouc_bezručovy_sady_riverside_promenade.json"
    },
    {
      "venue_id": "olomouc_dolní_náměstí_lower_square_district",
      "name": "Dolní náměstí Lower Square District",
      "lat": 49.5921647,
      "lon": 17.2531946,
      "radius_m": 1000,
      "base_scenario": "neighborhood",
      "file": "cs-CZ/olomouc/olomouc_dolní_náměstí_lower_square_district.json"
    },
    {
      "venue_id": "olomouc_hanácká_koláč_bakery",
      "name": "Hanácká Koláč Bakery",
      "lat": 49.5940567,
      "lon": 17.251143,
      "radius_m": 75,
      "base_scenario": "restaurant",
      "file": "cs-CZ/olomouc/olomouc_hanácká_koláč_bakery.json"
    },
    {
      "venue_id": "olomouc_holy_trinity_column_in_olomouc",
      "name": "Holy Trinity Column in Olomouc",
      "lat": 49.5939228,
      "lon": 17.2504391,
      "radius_m": 250,
      "base_scenario": "neighborhood",
      "file": "cs-CZ/olomouc/olomouc_holy_trinity_column_in_olomouc.json"
    },
    {
      "venue_id": "olomouc_hradisko_monastery_viewpoint",
      "name": "Hradisko Monastery Viewpoint",
      "lat": 49.6060072,
      "lon": 17.2657675,
      "radius_m": 300,
      "base_scenario": "outdoors",
      "file": "cs-CZ/olomouc/olomouc_hradisko_monastery_viewpoint.json"
    },
    {
      "venue_id": "olomouc_moritz_microbrewery_restaurant",
      "name": "Moritz Microbrewery Restaurant",
      "lat": 49.5907418,
      "lon": 17.2499985,
      "radius_m": 75,
      "base_scenario": "restaurant",
      "file": "cs-CZ/olomouc/olomouc_moritz_microbrewery_restaurant.json"
    },
    {
      "venue_id": "olomouc_museum_of_modern_art_olomouc",
      "name": "Museum of Modern Art Olomouc",
      "lat": 49.5962827,
      "lon": 17.2562063,
      "radius_m": 200,
      "base_scenario": "museum",
      "file": "cs-CZ/olomouc/olomouc_museum_of_modern_art_olomouc.json"
    },
    {
      "venue_id": "olomouc_olomouc_astronomical_clock",
      "name": "Olomouc Astronomical Clock",
      "lat": 49.5940313,
      "lon": 17.2514247,
      "radius_m": 250,
      "base_scenario": "neighborhood",
      "file": "cs-CZ/olomouc/olomouc_olomouc_astronomical_clock.json"
    },
    {
      "venue_id": "olomouc_olomouc_central_bus_station",
      "name": "Olomouc Central Bus Station",
      "lat": 49.5940567,
      "lon": 17.251143,
      "radius_m": 200,
      "base_scenario": "train_station",
      "file": "cs-CZ/olomouc/olomouc_olomouc_central_bus_station.json"
    },
    {
      "venue_id": "olomouc_olomouc_covered_market_hall",
      "name": "Olomouc Covered Market Hall",
      "lat": 49.5940567,
      "lon": 17.251143,
      "radius_m": 150,
      "base_scenario": "market",
      "file": "cs-CZ/olomouc/olomouc_olomouc_covered_market_hall.json"
    },
    {
      "venue_id": "olomouc_olomouc_main_train_station",
      "name": "Olomouc Main Train Station",
      "lat": 49.5928438,
      "lon": 17.2783453,
      "radius_m": 200,
      "base_scenario": "train_station",
      "file": "cs-CZ/olomouc/olomouc_olomouc_main_train_station.json"
    },
    {
      "venue_id": "olomouc_olomouc_tourist_information_center",
      "name": "Olomouc Tourist Information Center",
      "lat": 49.7016996,
      "lon": 17.0760588,
      "radius_m": 100,
      "base_scenario": null,
      "file": "cs-CZ/olomouc/olomouc_olomouc_tourist_information_center.json"
    },
    {
      "venue_id": "olomouc_palacký_university_botanical_garden",
      "name": "Palacký University Botanical Garden",
      "lat": 49.5860836,
      "lon": 17.2497573,
      "radius_m": 300,
      "base_scenario": "outdoors",
      "file": "cs-CZ/olomouc/olomouc_palacký_university_botanical_garden.json"
    },
    {
      "venue_id": "olomouc_smetanovy_sady_city_park",
      "name": "Smetanovy sady City Park",
      "lat": 49.5881871,
      "lon": 17.2492235,
      "radius_m": 300,
      "base_scenario": "outdoors",
      "file": "cs-CZ/olomouc/olomouc_smetanovy_sady_city_park.json"
    },
    {
      "venue_id": "olomouc_upper_square_historic_quarter",
      "name": "Upper Square Historic Quarter",
      "lat": 49.5937441,
      "lon": 17.2511917,
      "radius_m": 1000,
      "base_scenario": "neighborhood",
      "file": "cs-CZ/olomouc/olomouc_upper_square_historic_quarter.json"
    },
    {
      "venue_id": "plzeň_bolevec_lakes_recreation_area",
      "name": "Bolevec Lakes Recreation Area",
      "lat": 49.7477415,
      "lon": 13.3775249,
      "radius_m": 300,
      "base_scenario": "outdoors",
      "file": "cs-CZ/plzeň/plzeň_bolevec_lakes_recreation_area.json"
    },
    {
      "venue_id": "plzeň_historic_city_center",
      "name": "Historic City Center",
      "lat": 49.7472531,
      "lon": 13.3775871,
      "radius_m": 1000,
      "base_scenario": "neighborhood",
      "file": "cs-CZ/plzeň/plzeň_historic_city_center.json"
    },
    {
      "venue_id": "plzeň_jižní_předměstí_brewery_quarter",
      "name": "Jižní Předměstí Brewery Quarter",
      "lat": 49.7477002,
      "lon": 13.3878644,
      "radius_m": 1000,
      "base_scenario": "neighborhood",
      "file": "cs-CZ/plzeň/plzeň_jižní_předměstí_brewery_quarter.json"
    },
    {
      "venue_id": "plzeň_lochotín_hill_and_park_district",
      "name": "Lochotín Hill and Park District",
      "lat": 49.7610133,
      "lon": 13.3678476,
      "radius_m": 1000,
      "base_scenario": "neighborhood",
      "file": "cs-CZ/plzeň/plzeň_lochotín_hill_and_park_district.json"
    },
    {
      "venue_id": "plzeň_lochotín_park_and_amphitheatre",
      "name": "Lochotín Park and Amphitheatre",
      "lat": 49.7477415,
      "lon": 13.3775249,
      "radius_m": 300,
      "base_scenario": "outdoors",
      "file": "cs-CZ/plzeň/plzeň_lochotín_park_and_amphitheatre.json"
    },
    {
      "venue_id": "plzeň_museum_of_west_bohemia",
      "name": "Museum of West Bohemia",
      "lat": 49.7477415,
      "lon": 13.3775249,
      "radius_m": 200,
      "base_scenario": "museum",
      "file": "cs-CZ/plzeň/plzeň_museum_of_west_bohemia.json"
    },
    {
      "venue_id": "plzeň_na_spilce_restaurant",
      "name": "Na Spilce Restaurant",
      "lat": 49.7471893,
      "lon": 13.3878407,
      "radius_m": 75,
      "base_scenario": "restaurant",
      "file": "cs-CZ/plzeň/plzeň_na_spilce_restaurant.json"
    },
    {
      "venue_id": "plzeň_patton_memorial_pilsen",
      "name": "Patton Memorial Pilsen",
      "lat": 49.7462249,
      "lon": 13.3735017,
      "radius_m": 200,
      "base_scenario": "museum",
      "file": "cs-CZ/plzeň/plzeň_patton_memorial_pilsen.json"
    },
    {
      "venue_id": "plzeň_plzeň_central_bus_station",
      "name": "Plzeň Central Bus Station",
      "lat": 49.7467118,
      "lon": 13.3630947,
      "radius_m": 200,
      "base_scenario": "train_station",
      "file": "cs-CZ/plzeň/plzeň_plzeň_central_bus_station.json"
    },
    {
      "venue_id": "plzeň_plzeň_central_market_hall",
      "name": "Plzeň Central Market Hall",
      "lat": 49.7477415,
      "lon": 13.3775249,
      "radius_m": 150,
      "base_scenario": "market",
      "file": "cs-CZ/plzeň/plzeň_plzeň_central_market_hall.json"
    },
    {
      "venue_id": "plzeň_plzeň_main_train_station",
      "name": "Plzeň Main Train Station",
      "lat": 49.7444667,
      "lon": 13.3874148,
      "radius_m": 200,
      "base_scenario": "train_station",
      "file": "cs-CZ/plzeň/plzeň_plzeň_main_train_station.json"
    },
    {
      "venue_id": "plzeň_plzeň_tourist_information_center",
      "name": "Plzeň Tourist Information Center",
      "lat": 49.935121,
      "lon": 13.388822,
      "radius_m": 100,
      "base_scenario": null,
      "file": "cs-CZ/plzeň/plzeň_plzeň_tourist_information_center.json"
    },
    {
      "venue_id": "plzeň_plzeňský_prazdroj_brewery",
      "name": "Plzeňský Prazdroj Brewery",
      "lat": 49.7477002,
      "lon": 13.3878644,
      "radius_m": 250,
      "base_scenario": "neighborhood",
      "file": "cs-CZ/plzeň/plzeň_plzeňský_prazdroj_brewery.json"
    },
    {
      "venue_id": "plzeň_republic_square",
      "name": "Republic Square",
      "lat": 49.7472531,
      "lon": 13.3775871,
      "radius_m": 250,
      "base_scenario": "neighborhood",
      "file": "cs-CZ/plzeň/plzeň_republic_square.json"
    },
    {
      "venue_id": "plzeň_st_bartholomews_cathedral",
      "name": "St. Bartholomew's Cathedral",
      "lat": 49.7474802,
      "lon": 13.3775119,
      "radius_m": 250,
      "base_scenario": "neighborhood",
      "file": "cs-CZ/plzeň/plzeň_st_bartholomews_cathedral.json"
    },
    {
      "venue_id": "plzeň_škoda_restaurant_and_brewery",
      "name": "Škoda Restaurant and Brewery",
      "lat": 49.7477415,
      "lon": 13.3775249,
      "radius_m": 75,
      "base_scenario": "restaurant",
      "file": "cs-CZ/plzeň/plzeň_škoda_restaurant_and_brewery.json"
    },
    {
      "venue_id": "prague_café_savoy",
      "name": "Café Savoy",
      "lat": 50.0809258,
      "lon": 14.4072158,
      "radius_m": 75,
      "base_scenario": "restaurant",
      "file": "cs-CZ/prague/prague_café_savoy.json"
    },
    {
      "venue_id": "prague_charles_bridge",
      "name": "Charles Bridge",
      "lat": 50.0866258,
      "lon": 14.4101485,
      "radius_m": 250,
      "base_scenario": "neighborhood",
      "file": "cs-CZ/prague/prague_charles_bridge.json"
    },
    {
      "venue_id": "prague_havelské_tržiště",
      "name": "Havelské tržiště",
      "lat": 50.0847723,
      "lon": 14.4209935,
      "radius_m": 150,
      "base_scenario": "market",
      "file": "cs-CZ/prague/prague_havelské_tržiště.json"
    },
    {
      "venue_id": "prague_letná_park",
      "name": "Letná Park",
      "lat": 50.0964045,
      "lon": 14.4141409,
      "radius_m": 300,
      "base_scenario": "outdoors",
      "file": "cs-CZ/prague/prague_letná_park.json"
    },
    {
      "venue_id": "prague_lokál_dlouhááá",
      "name": "Lokál Dlouhááá",
      "lat": 50.0906955,
      "lon": 14.4257576,
      "radius_m": 75,
      "base_scenario": "restaurant",
      "file": "cs-CZ/prague/prague_lokál_dlouhááá.json"
    },
    {
      "venue_id": "prague_malá_strana",
      "name": "Malá Strana",
      "lat": 50.0864625,
      "lon": 14.4022722,
      "radius_m": 1000,
      "base_scenario": "neighborhood",
      "file": "cs-CZ/prague/prague_malá_strana.json"
    },
    {
      "venue_id": "prague_museum_of_communism",
      "name": "Museum of Communism",
      "lat": 50.0878515,
      "lon": 14.4300109,
      "radius_m": 200,
      "base_scenario": "museum",
      "file": "cs-CZ/prague/prague_museum_of_communism.json"
    },
    {
      "venue_id": "prague_můstek_metro_station",
      "name": "Můstek Metro Station",
      "lat": 50.0834134,
      "lon": 14.4233451,
      "radius_m": 200,
      "base_scenario": "train_station",
      "file": "cs-CZ/prague/prague_můstek_metro_station.json"
    },
    {
      "venue_id": "prague_national_museum",
      "name": "National Museum",
      "lat": 50.078919,
      "lon": 14.4309678,
      "radius_m": 200,
      "base_scenario": "museum",
      "file": "cs-CZ/prague/prague_national_museum.json"
    },
    {
      "venue_id": "prague_old_town",
      "name": "Old Town",
      "lat": 50.0861154,
      "lon": 14.4187817,
      "radius_m": 1000,
      "base_scenario": "neighborhood",
      "file": "cs-CZ/prague/prague_old_town.json"
    },
    {
      "venue_id": "prague_old_town_square",
      "name": "Old Town Square",
      "lat": 50.0874453,
      "lon": 14.4209714,
      "radius_m": 250,
      "base_scenario": "neighborhood",
      "file": "cs-CZ/prague/prague_old_town_square.json"
    },
    {
      "venue_id": "prague_palladium_shopping_center",
      "name": "Palladium Shopping Center",
      "lat": 50.089427,
      "lon": 14.429638,
      "radius_m": 75,
      "base_scenario": "shopping",
      "file": "cs-CZ/prague/prague_palladium_shopping_center.json"
    },
    {
      "venue_id": "prague_pařížská_street",
      "name": "Pařížská Street",
      "lat": 50.0900794,
      "lon": 14.4189547,
      "radius_m": 75,
      "base_scenario": "shopping",
      "file": "cs-CZ/prague/prague_pařížská_street.json"
    },
    {
      "venue_id": "prague_prague_castle",
      "name": "Prague Castle",
      "lat": 50.0908114,
      "lon": 14.4005225,
      "radius_m": 250,
      "base_scenario": "neighborhood",
      "file": "cs-CZ/prague/prague_prague_castle.json"
    },
    {
      "venue_id": "prague_prague_main_railway_station",
      "name": "Prague Main Railway Station",
      "lat": 50.0829628,
      "lon": 14.4360939,
      "radius_m": 200,
      "base_scenario": "train_station",
      "file": "cs-CZ/prague/prague_prague_main_railway_station.json"
    },
    {
      "venue_id": "prague_prague_tourist_information_center",
      "name": "Prague Tourist Information Center",
      "lat": 50.0874453,
      "lon": 14.4209714,
      "radius_m": 100,
      "base_scenario": null,
      "file": "cs-CZ/prague/prague_prague_tourist_information_center.json"
    },
    {
      "venue_id": "prague_václav_havel_airport_prague",
      "name": "Václav Havel Airport Prague",
      "lat": 50.1020451,
      "lon": 14.2705663,
      "radius_m": 200,
      "base_scenario": "train_station",
      "file": "cs-CZ/prague/prague_václav_havel_airport_prague.json"
    },
    {
      "venue_id": "prague_wenceslas_square",
      "name": "Wenceslas Square",
      "lat": 50.0815867,
      "lon": 14.4271699,
      "radius_m": 1000,
      "base_scenario": "neighborhood",
      "file": "cs-CZ/prague/prague_wenceslas_square.json"
    },
    {
      "venue_id": "české_budějovice_black_tower",
      "name": "Black Tower",
      "lat": 48.9755251,
      "lon": 14.4756878,
      "radius_m": 250,
      "base_scenario": "neighborhood",
      "file": "cs-CZ/české_budějovice/české_budějovice_black_tower.json"
    },
    {
      "venue_id": "české_budějovice_budvar_brewery_restaurant",
      "name": "Budvar Brewery Restaurant",
      "lat": 48.9747357,
      "lon": 14.474285,
      "radius_m": 75,
      "base_scenario": "restaurant",
      "file": "cs-CZ/české_budějovice/české_budějovice_budvar_brewery_restaurant.json"
    },
    {
      "venue_id": "české_budějovice_historic_city_center_and_old_town",
      "name": "Historic City Center and Old Town",
      "lat": 48.9747,
      "lon": 14.4747,
      "radius_m": 1000,
      "base_scenario": "neighborhood",
      "file": "cs-CZ/české_budějovice/české_budějovice_historic_city_center_and_old_town.json"
    },
    {
      "venue_id": "české_budějovice_igy_shopping_center",
      "name": "IGY Shopping Center",
      "lat": 48.9747357,
      "lon": 14.474285,
      "radius_m": 75,
      "base_scenario": "shopping",
      "file": "cs-CZ/české_budějovice/české_budějovice_igy_shopping_center.json"
    },
    {
      "venue_id": "české_budějovice_lannova_třída_shopping_street",
      "name": "Lannova třída shopping street",
      "lat": 48.9746067,
      "lon": 14.4860231,
      "radius_m": 75,
      "base_scenario": "shopping",
      "file": "cs-CZ/české_budějovice/české_budějovice_lannova_třída_shopping_street.json"
    },
    {
      "venue_id": "české_budějovice_lišov_suburb_historic_area",
      "name": "Lišov suburb historic area",
      "lat": 48.9747357,
      "lon": 14.474285,
      "radius_m": 1000,
      "base_scenario": "neighborhood",
      "file": "cs-CZ/české_budějovice/české_budějovice_lišov_suburb_historic_area.json"
    },
    {
      "venue_id": "české_budějovice_masné_krámy",
      "name": "Masné krámy",
      "lat": 48.9759719,
      "lon": 14.4735304,
      "radius_m": 75,
      "base_scenario": "restaurant",
      "file": "cs-CZ/české_budějovice/české_budějovice_masné_krámy.json"
    },
    {
      "venue_id": "české_budějovice_museum_of_horse_drawn_railway",
      "name": "Museum of Horse-Drawn Railway",
      "lat": 48.9747357,
      "lon": 14.474285,
      "radius_m": 200,
      "base_scenario": "museum",
      "file": "cs-CZ/české_budějovice/české_budějovice_museum_of_horse_drawn_railway.json"
    },
    {
      "venue_id": "české_budějovice_samson_fountain_and_ottokar_ii_square",
      "name": "Samson Fountain and Ottokar II Square",
      "lat": 48.9747357,
      "lon": 14.474285,
      "radius_m": 250,
      "base_scenario": "neighborhood",
      "file": "cs-CZ/české_budějovice/české_budějovice_samson_fountain_and_ottokar_ii_square.json"
    },
    {
      "venue_id": "české_budějovice_south_bohemian_museum",
      "name": "South Bohemian Museum",
      "lat": 48.9725222,
      "lon": 14.4766363,
      "radius_m": 200,
      "base_scenario": "museum",
      "file": "cs-CZ/české_budějovice/české_budějovice_south_bohemian_museum.json"
    },
    {
      "venue_id": "české_budějovice_stromovka_park",
      "name": "Stromovka Park",
      "lat": 48.9692726,
      "lon": 14.4583219,
      "radius_m": 300,
      "base_scenario": "outdoors",
      "file": "cs-CZ/české_budějovice/české_budějovice_stromovka_park.json"
    },
    {
      "venue_id": "české_budějovice_tourist_information_center",
      "name": "Tourist Information Center",
      "lat": 48.974398,
      "lon": 14.4732597,
      "radius_m": 100,
      "base_scenario": null,
      "file": "cs-CZ/české_budějovice/české_budějovice_tourist_information_center.json"
    },
    {
      "venue_id": "české_budějovice_u_zelené_ratolesti_brewery_district",
      "name": "U Zelené ratolesti brewery district",
      "lat": 48.9747357,
      "lon": 14.474285,
      "radius_m": 1000,
      "base_scenario": "neighborhood",
      "file": "cs-CZ/české_budějovice/české_budějovice_u_zelené_ratolesti_brewery_district.json"
    },
    {
      "venue_id": "české_budějovice_vltava_river_embankment",
      "name": "Vltava River Embankment",
      "lat": 48.9747357,
      "lon": 14.474285,
      "radius_m": 300,
      "base_scenario": "outdoors",
      "file": "cs-CZ/české_budějovice/české_budějovice_vltava_river_embankment.json"
    },
    {
      "venue_id": "české_budějovice_white_tower_pharmacy",
      "name": "White Tower Pharmacy",
      "lat": 48.9747357,
      "lon": 14.474285,
      "radius_m": 100,
      "base_scenario": null,
      "file": "cs-CZ/české_budějovice/české_budějovice_white_tower_pharmacy.json"
    },
    {
      "venue_id": "české_budějovice_české_budějovice_bus_station",
      "name": "České Budějovice Bus Station",
      "lat": 48.9729152,
      "lon": 14.4872941,
      "radius_m": 200,
      "base_scenario": "train_station",
      "file": "cs-CZ/české_budějovice/české_budějovice_české_budějovice_bus_station.json"
    },
    {
      "venue_id": "české_budějovice_české_budějovice_covered_market",
      "name": "České Budějovice Covered Market",
      "lat": 48.9747357,
      "lon": 14.474285,
      "radius_m": 150,
      "base_scenario": "market",
      "file": "cs-CZ/české_budějovice/české_budějovice_české_budějovice_covered_market.json"
    },
    {
      "venue_id": "české_budějovice_české_budějovice_main_railway_station",
      "name": "České Budějovice Main Railway Station",
      "lat": 48.9747357,
      "lon": 14.474285,
      "radius_m": 200,
      "base_scenario": "train_station",
      "file": "cs-CZ/české_budějovice/české_budějovice_české_budějovice_main_railway_station.json"
    },
    {
      "venue_id": "český_krumlov_bakerie_markalouska",
      "name": "Bakerie Markalouska",
      "lat": 48.8106526,
      "lon": 14.3150586,
      "radius_m": 75,
      "base_scenario": "restaurant",
      "file": "cs-CZ/český_krumlov/český_krumlov_bakerie_markalouska.json"
    },
    {
      "venue_id": "český_krumlov_castle_gardens",
      "name": "Castle Gardens",
      "lat": 48.8100829,
      "lon": 14.3070599,
      "radius_m": 300,
      "base_scenario": "outdoors",
      "file": "cs-CZ/český_krumlov/český_krumlov_castle_gardens.json"
    },
    {
      "venue_id": "český_krumlov_castle_tower",
      "name": "Castle Tower",
      "lat": 48.8123247,
      "lon": 14.3159222,
      "radius_m": 250,
      "base_scenario": "neighborhood",
      "file": "cs-CZ/český_krumlov/český_krumlov_castle_tower.json"
    },
    {
      "venue_id": "český_krumlov_egon_schiele_art_centrum",
      "name": "Egon Schiele Art Centrum",
      "lat": 48.8105715,
      "lon": 14.313418,
      "radius_m": 200,
      "base_scenario": "museum",
      "file": "cs-CZ/český_krumlov/český_krumlov_egon_schiele_art_centrum.json"
    },
    {
      "venue_id": "český_krumlov_krčma_šatlava_medieval_tavern",
      "name": "Krčma Šatlava medieval tavern",
      "lat": 48.8106903,
      "lon": 14.3159076,
      "radius_m": 75,
      "base_scenario": "restaurant",
      "file": "cs-CZ/český_krumlov/český_krumlov_krčma_šatlava_medieval_tavern.json"
    },
    {
      "venue_id": "český_krumlov_latrán_street_shops",
      "name": "Latrán Street shops",
      "lat": 48.8106526,
      "lon": 14.3150586,
      "radius_m": 75,
      "base_scenario": "shopping",
      "file": "cs-CZ/český_krumlov/český_krumlov_latrán_street_shops.json"
    },
    {
      "venue_id": "český_krumlov_latrán_historic_quarter",
      "name": "Latrán historic quarter",
      "lat": 48.814791,
      "lon": 14.3171165,
      "radius_m": 1000,
      "base_scenario": "neighborhood",
      "file": "cs-CZ/český_krumlov/český_krumlov_latrán_historic_quarter.json"
    },
    {
      "venue_id": "český_krumlov_old_town_market_square",
      "name": "Old Town Market Square",
      "lat": 48.8106526,
      "lon": 14.3150586,
      "radius_m": 150,
      "base_scenario": "market",
      "file": "cs-CZ/český_krumlov/český_krumlov_old_town_market_square.json"
    },
    {
      "venue_id": "český_krumlov_old_town_historic_center",
      "name": "Old Town historic center",
      "lat": 48.8109074,
      "lon": 14.3148172,
      "radius_m": 1000,
      "base_scenario": "neighborhood",
      "file": "cs-CZ/český_krumlov/český_krumlov_old_town_historic_center.json"
    },
    {
      "venue_id": "český_krumlov_papas_living_restaurant",
      "name": "Papa's Living Restaurant",
      "lat": 48.8117416,
      "lon": 14.3168162,
      "radius_m": 75,
      "base_scenario": "restaurant",
      "file": "cs-CZ/český_krumlov/český_krumlov_papas_living_restaurant.json"
    },
    {
      "venue_id": "český_krumlov_parkán_street_artisan_lane",
      "name": "Parkán Street artisan lane",
      "lat": 48.8106526,
      "lon": 14.3150586,
      "radius_m": 75,
      "base_scenario": "shopping",
      "file": "cs-CZ/český_krumlov/český_krumlov_parkán_street_artisan_lane.json"
    },
    {
      "venue_id": "český_krumlov_regional_museum_český_krumlov",
      "name": "Regional Museum Český Krumlov",
      "lat": 48.8106866,
      "lon": 14.3177915,
      "radius_m": 200,
      "base_scenario": "museum",
      "file": "cs-CZ/český_krumlov/český_krumlov_regional_museum_český_krumlov.json"
    },
    {
      "venue_id": "český_krumlov_riverside_promenade_along_vltava",
      "name": "Riverside promenade along Vltava",
      "lat": 48.8106526,
      "lon": 14.3150586,
      "radius_m": 1000,
      "base_scenario": "neighborhood",
      "file": "cs-CZ/český_krumlov/český_krumlov_riverside_promenade_along_vltava.json"
    },
    {
      "venue_id": "český_krumlov_tourist_information_center",
      "name": "Tourist Information Center",
      "lat": 48.6553878,
      "lon": 14.3665919,
      "radius_m": 100,
      "base_scenario": null,
      "file": "cs-CZ/český_krumlov/český_krumlov_tourist_information_center.json"
    },
    {
      "venue_id": "český_krumlov_vyhlídková_věž_viewpoint",
      "name": "Vyhlídková věž viewpoint",
      "lat": 48.8106526,
      "lon": 14.3150586,
      "radius_m": 300,
      "base_scenario": "outdoors",
      "file": "cs-CZ/český_krumlov/český_krumlov_vyhlídková_věž_viewpoint.json"
    },
    {
      "venue_id": "český_krumlov_český_krumlov_castle",
      "name": "Český Krumlov Castle",
      "lat": 48.8128866,
      "lon": 14.3155525,
      "radius_m": 250,
      "base_scenario": "neighborhood",
      "file": "cs-CZ/český_krumlov/český_krumlov_český_krumlov_castle.json"
    },
    {
      "venue_id": "český_krumlov_český_krumlov_railway_station",
      "name": "Český Krumlov Railway Station",
      "lat": 48.8220956,
      "lon": 14.3172215,
      "radius_m": 200,
      "base_scenario": "train_station",
      "file": "cs-CZ/český_krumlov/český_krumlov_český_krumlov_railway_station.json"
    },
    {
      "venue_id": "český_krumlov_špičák_bus_station",
      "name": "Špičák Bus Station",
      "lat": 48.8106526,
      "lon": 14.3150586,
      "radius_m": 200,
      "base_scenario": "train_station",
      "file": "cs-CZ/český_krumlov/český_krumlov_špičák_bus_station.json"
    }
  ],
  "neighborhoods": []
}