{
  "version": 1,
  "venues": [
    {
      "venue_id": "amsterdam_amsterdam_central_station",
      "name": "Amsterdam Central Station",
      "lat": 52.378901,
      "lon": 4.9005805,
      "radius_m": 200,
      "base_scenario": "train_station",
      "file": "nl-NL/amsterdam/amsterdam_amsterdam_central_station.json"
    },
    {
      "venue_id": "amsterdam_anne_frank_house",
      "name": "Anne Frank House",
      "lat": 52.3751558,
      "lon": 4.8840807,
      "radius_m": 200,
      "base_scenario": "museum",
      "file": "nl-NL/amsterdam/amsterdam_anne_frank_house.json"
    },
    {
      "venue_id": "amsterdam_dam_square",
      "name": "Dam Square",
      "lat": 52.3731449,
      "lon": 4.8913363,
      "radius_m": 250,
      "base_scenario": "neighborhood",
      "file": "nl-NL/amsterdam/amsterdam_dam_square.json"
    },
    {
      "venue_id": "amsterdam_de_pijp_neighborhood",
      "name": "De Pijp Neighborhood",
      "lat": 52.3533455,
      "lon": 4.8969623,
      "radius_m": 1000,
      "base_scenario": "neighborhood",
      "file": "nl-NL/amsterdam/amsterdam_de_pijp_neighborhood.json"
    },
    {
      "venue_id": "amsterdam_de_wallen_red_light_district",
      "name": "De Wallen Red Light District",
      "lat": 52.3734085,
      "lon": 4.8982807,
      "radius_m": 1000,
      "base_scenario": "neighborhood",
      "file": "nl-NL/amsterdam/amsterdam_de_wallen_red_light_district.json"
    },
    {
      "venue_id": "amsterdam_jordaan_district",
      "name": "Jordaan District",
      "lat": 52.3754157,
      "lon": 4.8810958,
      "radius_m": 1000,
      "base_scenario": "neighborhood",
      "file": "nl-NL/amsterdam/amsterdam_jordaan_district.json"
    },
    {
      "venue_id": "amsterdam_kalverstraat_shopping_street",
      "name": "Kalverstraat Shopping Street",
      "lat": 52.3698825,
      "lon": 4.891307,
      "radius_m": 75,
      "base_scenario": "shopping",
      "file": "nl-NL/amsterdam/amsterdam_kalverstraat_shopping_street.json"
    },
    {
      "venue_id": "amsterdam_museumplein",
      "name": "Museumplein",
      "lat": 52.3572706,
      "lon": 4.8815398,
      "radius_m": 300,
      "base_scenario": "outdoors",
      "file": "nl-NL/amsterdam/amsterdam_museumplein.json"
    },
    {
      "venue_id": "amsterdam_rijksmuseum",
      "name": "Rijksmuseum",
      "lat": 52.3598431,
      "lon": 4.8850395,
      "radius_m": 200,
      "base_scenario": "museum",
      "file": "nl-NL/amsterdam/amsterdam_rijksmuseum.json"
    },
    {
      "venue_id": "amsterdam_schiphol_airport",
      "name": "Schiphol Airport",
      "lat": 52.3095969,
      "lon": 4.7620721,
      "radius_m": 200,
      "base_scenario": "train_station",
      "file": "nl-NL/amsterdam/amsterdam_schiphol_airport.json"
    },
    {
      "venue_id": "amsterdam_van_stapele_koekmakerij",
      "name": "Van Stapele Koekmakerij",
      "lat": 52.3719789,
      "lon": 4.893365,
      "radius_m": 75,
      "base_scenario": "restaurant",
      "file": "nl-NL/amsterdam/amsterdam_van_stapele_koekmakerij.json"
    },
    {
      "venue_id": "amsterdam_vondelpark",
      "name": "Vondelpark",
      "lat": 52.3571974,
      "lon": 4.864119,
      "radius_m": 300,
      "base_scenario": "outdoors",
      "file": "nl-NL/amsterdam/amsterdam_vondelpark.json"
    },
    {
      "venue_id": "delft_delft_central_station",
      "name": "Delft Central Station",
      "lat": 52.0068273,
      "lon": 4.3569205,
      "radius_m": 200,
      "base_scenario": "train_station",
      "file": "nl-NL/delft/delft_delft_central_station.json"
    },
    {
      "venue_id": "delft_delft_city_hall_and_market_square",
      "name": "Delft City Hall and Market Square",
      "lat": 52.0116,
      "lon": 4.3571,
      "radius_m": 250,
      "base_scenario": "neighborhood",
      "file": "nl-NL/delft/delft_delft_city_hall_and_market_square.json"
    },
    {
      "venue_id": "delft_new_church",
      "name": "New Church",
      "lat": 52.0122877,
      "lon": 4.3607206,
      "radius_m": 250,
      "base_scenario": "neighborhood",
      "file": "nl-NL/delft/delft_new_church.json"
    },
    {
      "venue_id": "delft_old_church",
      "name": "Old Church",
      "lat": 52.0125957,
      "lon": 4.355906,
      "radius_m": 250,
      "base_scenario": "neighborhood",
      "file": "nl-NL/delft/delft_old_church.json"
    },
    {
      "venue_id": "giethoorn_de_oude_aarde_minerals_and_fossils_museum",
      "name": "De Oude Aarde minerals and fossils museum",
      "lat": 52.7252059,
      "lon": 6.0904873,
      "radius_m": 200,
      "base_scenario": "museum",
      "file": "nl-NL/giethoorn/giethoorn_de_oude_aarde_minerals_and_fossils_museum.json"
    },
    {
      "venue_id": "giethoorn_museum_giethoorn_t_olde_maat_uus",
      "name": "Museum Giethoorn 't Olde Maat Uus",
      "lat": 52.722224,
      "lon": 6.0898336,
      "radius_m": 200,
      "base_scenario": "museum",
      "file": "nl-NL/giethoorn/giethoorn_museum_giethoorn_t_olde_maat_uus.json"
    },
    {
      "venue_id": "groningen_groningen_airport_eelde",
      "name": "Groningen Airport Eelde",
      "lat": 53.1194,
      "lon": 6.5778,
      "radius_m": 200,
      "base_scenario": "train_station",
      "file": "nl-NL/groningen/groningen_groningen_airport_eelde.json"
    },
    {
      "venue_id": "groningen_groningen_central_station",
      "name": "Groningen Central Station",
      "lat": 53.2127,
      "lon": 5.6731,
      "radius_m": 200,
      "base_scenario": "train_station",
      "file": "nl-NL/groningen/groningen_groningen_central_station.json"
    },
    {
      "venue_id": "groningen_martini_tower",
      "name": "Martini Tower",
      "lat": 53.2194,
      "lon": 6.5665,
      "radius_m": 250,
      "base_scenario": "neighborhood",
      "file": "nl-NL/groningen/groningen_martini_tower.json"
    },
    {
      "venue_id": "haarlem_grote_kerk",
      "name": "Grote Kerk",
      "lat": 52.3798,
      "lon": 4.6345,
      "radius_m": 250,
      "base_scenario": "neighborhood",
      "file": "nl-NL/haarlem/haarlem_grote_kerk.json"
    },
    {
      "venue_id": "haarlem_haarlem_central_station",
      "name": "Haarlem Central Station",
      "lat": 52.3869,
      "lon": 4.6368,
      "radius_m": 200,
      "base_scenario": "train_station",
      "file": "nl-NL/haarlem/haarlem_haarlem_central_station.json"
    },
    {
      "venue_id": "haarlem_teylers_museum",
      "name": "Teylers Museum",
      "lat": 52.3794,
      "lon": 4.5532,
      "radius_m": 200,
      "base_scenario": "museum",
      "file": "nl-NL/haarlem/haarlem_teylers_museum.json"
    },
    {
      "venue_id": "leiden_leiden_central_station",
      "name": "Leiden Central Station",
      "lat": 52.166319,
      "lon": 4.482286,
      "radius_m": 200,
      "base_scenario": "train_station",
      "file": "nl-NL/leiden/leiden_leiden_central_station.json"
    },
    {
      "venue_id": "maastricht_basilica_of_saint_servatius",
      "name": "Basilica of Saint Servatius",
      "lat": 50.8493582,
      "lon": 5.6867471,
      "radius_m": 250,
      "base_scenario": "neighborhood",
      "file": "nl-NL/maastricht/maastricht_basilica_of_saint_servatius.json"
    },
    {
      "venue_id": "maastricht_bisschopsmolen_bakery",
      "name": "Bisschopsmolen Bakery",
      "lat": 50.8463765,
      "lon": 5.6925781,
      "radius_m": 75,
      "base_scenario": "restaurant",
      "file": "nl-NL/maastricht/maastricht_bisschopsmolen_bakery.json"
    },
    {
      "venue_id": "maastricht_bonnefanten_museum",
      "name": "Bonnefanten Museum",
      "lat": 50.8424797,
      "lon": 5.701339,
      "radius_m": 200,
      "base_scenario": "museum",
      "file": "nl-NL/maastricht/maastricht_bonnefanten_museum.json"
    },
    {
      "venue_id": "maastricht_city_park_maastricht",
      "name": "City Park Maastricht",
      "lat": 50.8450054,
      "lon": 5.6949931,
      "radius_m": 300,
      "base_scenario": "outdoors",
      "file": "nl-NL/maastricht/maastricht_city_park_maastricht.json"
    },
    {
      "venue_id": "maastricht_céramique_cultural_district",
      "name": "Céramique Cultural District",
      "lat": 50.8444318,
      "lon": 5.7015613,
      "radius_m": 1000,
      "base_scenario": "neighborhood",
      "file": "nl-NL/maastricht/maastricht_céramique_cultural_district.json"
    },
    {
      "venue_id": "maastricht_entre_deux_shopping_center",
      "name": "Entre Deux Shopping Center",
      "lat": 50.8505515,
      "lon": 5.6896733,
      "radius_m": 75,
      "base_scenario": "shopping",
      "file": "nl-NL/maastricht/maastricht_entre_deux_shopping_center.json"
    },
    {
      "venue_id": "maastricht_jekerkwartier_arts_quarter",
      "name": "Jekerkwartier Arts Quarter",
      "lat": 50.84492,
      "lon": 5.6905467,
      "radius_m": 1000,
      "base_scenario": "neighborhood",
      "file": "nl-NL/maastricht/maastricht_jekerkwartier_arts_quarter.json"
    },
    {
      "venue_id": "maastricht_maastricht_aachen_airport",
      "name": "Maastricht Aachen Airport",
      "lat": 50.9124991,
      "lon": 5.7713205,
      "radius_m": 200,
      "base_scenario": "train_station",
      "file": "nl-NL/maastricht/maastricht_maastricht_aachen_airport.json"
    },
    {
      "venue_id": "maastricht_maastricht_central_station",
      "name": "Maastricht Central Station",
      "lat": 50.8497195,
      "lon": 5.7054524,
      "radius_m": 200,
      "base_scenario": "train_station",
      "file": "nl-NL/maastricht/maastricht_maastricht_central_station.json"
    },
    {
      "venue_id": "maastricht_maastricht_underground_caves",
      "name": "Maastricht Underground Caves",
      "lat": 50.8512438,
      "lon": 5.6909768,
      "radius_m": 200,
      "base_scenario": "museum",
      "file": "nl-NL/maastricht/maastricht_maastricht_underground_caves.json"
    },
    {
      "venue_id": "maastricht_markt_square_market",
      "name": "Markt Square Market",
      "lat": 50.8514467,
      "lon": 5.6902096,
      "radius_m": 150,
      "base_scenario": "market",
      "file": "nl-NL/maastricht/maastricht_markt_square_market.json"
    },
    {
      "venue_id": "maastricht_markt_covered_market_hall",
      "name": "Markt covered market hall",
      "lat": 50.851485,
      "lon": 5.6906812,
      "radius_m": 150,
      "base_scenario": "market",
      "file": "nl-NL/maastricht/maastricht_markt_covered_market_hall.json"
    },
    {
      "venue_id": "maastricht_onze_lieve_vrouweplein_cafe_quarter",
      "name": "Onze Lieve Vrouweplein cafe quarter",
      "lat": 50.8474865,
      "lon": 5.6929785,
      "radius_m": 1000,
      "base_scenario": "neighborhood",
      "file": "nl-NL/maastricht/maastricht_onze_lieve_vrouweplein_cafe_quarter.json"
    },
    {
      "venue_id": "maastricht_reijnders_traditional_restaurant",
      "name": "Reijnders Traditional Restaurant",
      "lat": 52.3646163,
      "lon": 4.8829038,
      "radius_m": 75,
      "base_scenario": "restaurant",
      "file": "nl-NL/maastricht/maastricht_reijnders_traditional_restaurant.json"
    },
    {
      "venue_id": "maastricht_sint_pietersberg_hill",
      "name": "Sint-Pietersberg Hill",
      "lat": 50.8268747,
      "lon": 5.6874837,
      "radius_m": 300,
      "base_scenario": "outdoors",
      "file": "nl-NL/maastricht/maastricht_sint_pietersberg_hill.json"
    },
    {
      "venue_id": "maastricht_sint_pietersberg_hill_and_viewpoint",
      "name": "Sint-Pietersberg hill and viewpoint",
      "lat": 50.8268747,
      "lon": 5.6874837,
      "radius_m": 300,
      "base_scenario": "outdoors",
      "file": "nl-NL/maastricht/maastricht_sint_pietersberg_hill_and_viewpoint.json"
    },
    {
      "venue_id": "maastricht_sint_servatius_bridge",
      "name": "Sint-Servatius Bridge",
      "lat": 50.8494043,
      "lon": 5.6955324,
      "radius_m": 250,
      "base_scenario": "neighborhood",
      "file": "nl-NL/maastricht/maastricht_sint_servatius_bridge.json"
    },
    {
      "venue_id": "maastricht_stokstraat_shopping_street",
      "name": "Stokstraat Shopping Street",
      "lat": 50.848496,
      "lon": 5.6940719,
      "radius_m": 75,
      "base_scenario": "shopping",
      "file": "nl-NL/maastricht/maastricht_stokstraat_shopping_street.json"
    },
    {
      "venue_id": "maastricht_vvv_maastricht_tourist_information",
      "name": "VVV Maastricht Tourist Information",
      "lat": 50.8512438,
      "lon": 5.6909768,
      "radius_m": 100,
      "base_scenario": null,
      "file": "nl-NL/maastricht/maastricht_vvv_maastricht_tourist_information.json"
    },
    {
      "venue_id": "maastricht_vvv_maastricht_tourist_office",
      "name": "VVV Maastricht Tourist Office",
      "lat": 50.8484,
      "lon": 5.6881,
      "radius_m": 100,
      "base_scenario": null,
      "file": "nl-NL/maastricht/maastricht_vvv_maastricht_tourist_office.json"
    },
    {
      "venue_id": "maastricht_vrijthof_square",
      "name": "Vrijthof Square",
      "lat": 50.8490733,
      "lon": 5.6886303,
      "radius_m": 250,
      "base_scenario": "neighborhood",
      "file": "nl-NL/maastricht/maastricht_vrijthof_square.json"
    },
    {
      "venue_id": "maastricht_wijck_historic_district",
      "name": "Wijck historic district",
      "lat": 50.8472896,
      "lon": 5.7025267,
      "radius_m": 1000,
      "base_scenario": "neighborhood",
      "file": "nl-NL/maastricht/maastricht_wijck_historic_district.json"
    },
    {
      "venue_id": "maastricht_wyck_historic_district",
      "name": "Wyck Historic District",
      "lat": 50.8472896,
      "lon": 5.7025267,
      "radius_m": 1000,
      "base_scenario": "neighborhood",
      "file": "nl-NL/maastricht/maastricht_wyck_historic_district.json"
    },
    {
      "venue_id": "rotterdam_blaak_market",
      "name": "Blaak Market",
      "lat": 51.9201092,
      "lon": 4.4869571,
      "radius_m": 75,
      "base_scenario": "restaurant",
      "file": "nl-NL/rotterdam/rotterdam_blaak_market.json"
    },
    {
      "venue_id": "rotterdam_cube_houses",
      "name": "Cube Houses",
      "lat": 51.9203941,
      "lon": 4.4901272,
      "radius_m": 250,
      "base_scenario": "neighborhood",
      "file": "nl-NL/rotterdam/rotterdam_cube_houses.json"
    },
    {
      "venue_id": "rotterdam_erasmus_bridge",
      "name": "Erasmus Bridge",
      "lat": 51.9096125,
      "lon": 4.4854612,
      "radius_m": 250,
      "base_scenario": "neighborhood",
      "file": "nl-NL/rotterdam/rotterdam_erasmus_bridge.json"
    },
    {
      "venue_id": "rotterdam_fenix_food_factory",
      "name": "Fenix Food Factory",
      "lat": 51.9020609,
      "lon": 4.4868408,
      "radius_m": 75,
      "base_scenario": "restaurant",
      "file": "nl-NL/rotterdam/rotterdam_fenix_food_factory.json"
    },
    {
      "venue_id": "rotterdam_kop_van_zuid_waterfront_district",
      "name": "Kop van Zuid waterfront district",
      "lat": 51.906546,
      "lon": 4.4921854,
      "radius_m": 1000,
      "base_scenario": "neighborhood",
      "file": "nl-NL/rotterdam/rotterdam_kop_van_zuid_waterfront_district.json"
    },
    {
      "venue_id": "rotterdam_maritime_museum_rotterdam",
      "name": "Maritime Museum Rotterdam",
      "lat": 51.9176272,
      "lon": 4.4818867,
      "radius_m": 200,
      "base_scenario": "museum",
      "file": "nl-NL/rotterdam/rotterdam_maritime_museum_rotterdam.json"
    },
    {
      "venue_id": "rotterdam_museum_boijmans_van_beuningen",
      "name": "Museum Boijmans Van Beuningen",
      "lat": 51.9143648,
      "lon": 4.4730006,
      "radius_m": 200,
      "base_scenario": "museum",
      "file": "nl-NL/rotterdam/rotterdam_museum_boijmans_van_beuningen.json"
    },
    {
      "venue_id": "rotterdam_rotterdam_centraal_station",
      "name": "Rotterdam Centraal Station",
      "lat": 51.9255139,
      "lon": 4.4679403,
      "radius_m": 200,
      "base_scenario": "train_station",
      "file": "nl-NL/rotterdam/rotterdam_rotterdam_centraal_station.json"
    },
    {
      "venue_id": "rotterdam_rotterdam_the_hague_airport",
      "name": "Rotterdam The Hague Airport",
      "lat": 51.9563359,
      "lon": 4.4397319,
      "radius_m": 200,
      "base_scenario": "train_station",
      "file": "nl-NL/rotterdam/rotterdam_rotterdam_the_hague_airport.json"
    },
    {
      "venue_id": "the_hague_binnenhof",
      "name": "Binnenhof",
      "lat": 52.079333,
      "lon": 4.3123736,
      "radius_m": 250,
      "base_scenario": "neighborhood",
      "file": "nl-NL/the_hague/the_hague_binnenhof.json"
    },
    {
      "venue_id": "the_hague_de_passage",
      "name": "De Passage",
      "lat": 52.0780582,
      "lon": 4.3111268,
      "radius_m": 75,
      "base_scenario": "shopping",
      "file": "nl-NL/the_hague/the_hague_de_passage.json"
    },
    {
      "venue_id": "the_hague_escher_in_the_palace",
      "name": "Escher in The Palace",
      "lat": 52.0834161,
      "lon": 4.3142554,
      "radius_m": 200,
      "base_scenario": "museum",
      "file": "nl-NL/the_hague/the_hague_escher_in_the_palace.json"
    },
    {
      "venue_id": "the_hague_hofkwartier_historic_quarter",
      "name": "Hofkwartier historic quarter",
      "lat": 52.083608,
      "lon": 4.3042022,
      "radius_m": 1000,
      "base_scenario": "neighborhood",
      "file": "nl-NL/the_hague/the_hague_hofkwartier_historic_quarter.json"
    },
    {
      "venue_id": "the_hague_noordeinde_shopping_street",
      "name": "Noordeinde shopping street",
      "lat": 52.0798869,
      "lon": 4.3082375,
      "radius_m": 75,
      "base_scenario": "shopping",
      "file": "nl-NL/the_hague/the_hague_noordeinde_shopping_street.json"
    },
    {
      "venue_id": "the_hague_peace_palace",
      "name": "Peace Palace",
      "lat": 52.0863964,
      "lon": 4.2956391,
      "radius_m": 250,
      "base_scenario": "neighborhood",
      "file": "nl-NL/the_hague/the_hague_peace_palace.json"
    },
    {
      "venue_id": "the_hague_restaurant_hagedis",
      "name": "Restaurant Hagedis",
      "lat": 52.0784108,
      "lon": 4.2928326,
      "radius_m": 75,
      "base_scenario": "restaurant",
      "file": "nl-NL/the_hague/the_hague_restaurant_hagedis.json"
    },
    {
      "venue_id": "the_hague_scheveningen_beach",
      "name": "Scheveningen Beach",
      "lat": 52.1118642,
      "lon": 4.2815171,
      "radius_m": 300,
      "base_scenario": "outdoors",
      "file": "nl-NL/the_hague/the_hague_scheveningen_beach.json"
    },
    {
      "venue_id": "the_hague_scheveningen_beachfront_promenade",
      "name": "Scheveningen beachfront promenade",
      "lat": 52.0799838,
      "lon": 4.3113461,
      "radius_m": 1000,
      "base_scenario": "neighborhood",
      "file": "nl-NL/the_hague/the_hague_scheveningen_beachfront_promenade.json"
    },
    {
      "venue_id": "the_hague_simonis_fish_market",
      "name": "Simonis Fish Market",
      "lat": 52.1007503,
      "lon": 4.2641344,
      "radius_m": 75,
      "base_scenario": "restaurant",
      "file": "nl-NL/the_hague/the_hague_simonis_fish_market.json"
    },
    {
      "venue_id": "the_hague_simonis_aan_de_haven",
      "name": "Simonis aan de Haven",
      "lat": 52.1007503,
      "lon": 4.2641344,
      "radius_m": 75,
      "base_scenario": "restaurant",
      "file": "nl-NL/the_hague/the_hague_simonis_aan_de_haven.json"
    },
    {
      "venue_id": "the_hague_the_hague_central_station",
      "name": "The Hague Central Station",
      "lat": 52.0808443,
      "lon": 4.3245487,
      "radius_m": 200,
      "base_scenario": "train_station",
      "file": "nl-NL/the_hague/the_hague_the_hague_central_station.json"
    },
    {
      "venue_id": "the_hague_the_hague_hollands_spoor_station",
      "name": "The Hague Hollands Spoor Station",
      "lat": 52.0701372,
      "lon": 4.3222758,
      "radius_m": 200,
      "base_scenario": "train_station",
      "file": "nl-NL/the_hague/the_hague_the_hague_hollands_spoor_station.json"
    },
    {
      "venue_id": "the_hague_the_hague_market",
      "name": "The Hague Market",
      "lat": 52.064398,
      "lon": 4.2993206,
      "radius_m": 150,
      "base_scenario": "market",
      "file": "nl-NL/the_hague/the_hague_the_hague_market.json"
    },
    {
      "venue_id": "the_hague_the_hague_city_center",
      "name": "The Hague city center",
      "lat": 52.079157,
      "lon": 4.3045934,
      "radius_m": 1000,
      "base_scenario": "neighborhood",
      "file": "nl-NL/the_hague/the_hague_the_hague_city_center.json"
    },
    {
      "venue_id": "the_hague_westbroekpark",
      "name": "Westbroekpark",
      "lat": 52.104216,
      "lon": 4.2907934,
      "radius_m": 300,
      "base_scenario": "outdoors",
      "file": "nl-NL/the_hague/the_hague_westbroekpark.json"
    },
    {
      "venue_id": "utrecht_broodje_mario",
      "name": "Broodje Mario",
      "lat": 52.0922451,
      "lon": 5.1171417,
      "radius_m": 75,
      "base_scenario": "restaurant",
      "file": "nl-NL/utrecht/utrecht_broodje_mario.json"
    },
    {
      "venue_id": "utrecht_centraal_museum",
      "name": "Centraal Museum",
      "lat": 52.0836118,
      "lon": 5.1256638,
      "radius_m": 200,
      "base_scenario": "museum",
      "file": "nl-NL/utrecht/utrecht_centraal_museum.json"
    },
    {
      "venue_id": "utrecht_centraal_station_utrecht",
      "name": "Centraal Station Utrecht",
      "lat": 52.0893925,
      "lon": 5.109821,
      "radius_m": 200,
      "base_scenario": "train_station",
      "file": "nl-NL/utrecht/utrecht_centraal_station_utrecht.json"
    },
    {
      "venue_id": "utrecht_de_oude_pijp_stroopwafel_bakery",
      "name": "De Oude Pijp stroopwafel bakery",
      "lat": 52.0907006,
      "lon": 5.1215634,
      "radius_m": 75,
      "base_scenario": "restaurant",
      "file": "nl-NL/utrecht/utrecht_de_oude_pijp_stroopwafel_bakery.json"
    },
    {
      "venue_id": "utrecht_domtoren",
      "name": "Domtoren",
      "lat": 52.0906531,
      "lon": 5.1213086,
      "radius_m": 250,
      "base_scenario": "neighborhood",
      "file": "nl-NL/utrecht/utrecht_domtoren.json"
    },
    {
      "venue_id": "utrecht_griftpark",
      "name": "Griftpark",
      "lat": 52.1008983,
      "lon": 5.1264891,
      "radius_m": 300,
      "base_scenario": "outdoors",
      "file": "nl-NL/utrecht/utrecht_griftpark.json"
    },
    {
      "venue_id": "utrecht_hoog_catharijne_shopping_mall",
      "name": "Hoog Catharijne shopping mall",
      "lat": 52.0908341,
      "lon": 5.111988,
      "radius_m": 75,
      "base_scenario": "shopping",
      "file": "nl-NL/utrecht/utrecht_hoog_catharijne_shopping_mall.json"
    },
    {
      "venue_id": "utrecht_kanaalstraat_multicultural_food_strip",
      "name": "Kanaalstraat multicultural food strip",
      "lat": 52.0913394,
      "lon": 5.1006515,
      "radius_m": 1000,
      "base_scenario": "neighborhood",
      "file": "nl-NL/utrecht/utrecht_kanaalstraat_multicultural_food_strip.json"
    },
    {
      "venue_id": "utrecht_leidsche_rijn_bus_station",
      "name": "Leidsche Rijn bus station",
      "lat": 52.0980635,
      "lon": 5.0672252,
      "radius_m": 200,
      "base_scenario": "train_station",
      "file": "nl-NL/utrecht/utrecht_leidsche_rijn_bus_station.json"
    },
    {
      "venue_id": "utrecht_museum_speelklok",
      "name": "Museum Speelklok",
      "lat": 52.0907282,
      "lon": 5.1194134,
      "radius_m": 200,
      "base_scenario": "museum",
      "file": "nl-NL/utrecht/utrecht_museum_speelklok.json"
    },
    {
      "venue_id": "utrecht_oudegracht_canal_district",
      "name": "Oudegracht canal district",
      "lat": 52.0898195,
      "lon": 5.1207652,
      "radius_m": 1000,
      "base_scenario": "neighborhood",
      "file": "nl-NL/utrecht/utrecht_oudegracht_canal_district.json"
    },
    {
      "venue_id": "utrecht_oudegracht_canal_wharves",
      "name": "Oudegracht canal wharves",
      "lat": 52.0907006,
      "lon": 5.1215634,
      "radius_m": 250,
      "base_scenario": "neighborhood",
      "file": "nl-NL/utrecht/utrecht_oudegracht_canal_wharves.json"
    },
    {
      "venue_id": "utrecht_sonnenborgh_observatory",
      "name": "Sonnenborgh Observatory",
      "lat": 52.0854876,
      "lon": 5.1286329,
      "radius_m": 200,
      "base_scenario": "museum",
      "file": "nl-NL/utrecht/utrecht_sonnenborgh_observatory.json"
    },
    {
      "venue_id": "utrecht_twijnstraat_shopping_street",
      "name": "Twijnstraat shopping street",
      "lat": 52.0824174,
      "lon": 5.1235245,
      "radius_m": 75,
      "base_scenario": "shopping",
      "file": "nl-NL/utrecht/utrecht_twijnstraat_shopping_street.json"
    },
    {
      "venue_id": "utrecht_utrecht_centraal_station",
      "name": "Utrecht Centraal Station",
      "lat": 52.0893925,
      "lon": 5.109821,
      "radius_m": 200,
      "base_scenario": "train_station",
      "file": "nl-NL/utrecht/utrecht_utrecht_centraal_station.json"
    },
    {
      "venue_id": "utrecht_vredenburg_market",
      "name": "Vredenburg Market",
      "lat": 52.0907006,
      "lon": 5.1215634,
      "radius_m": 150,
      "base_scenario": "market",
      "file": "nl-NL/utrecht/utrecht_vredenburg_market.json"
    },
    {
      "venue_id": "utrecht_wijk_c_historic_quarter",
      "name": "Wijk C historic quarter",
      "lat": 52.0948424,
      "lon": 5.113755,
      "radius_m": 1000,
      "base_scenario": "neighborhood",
      "file": "nl-NL/utrecht/utrecht_wijk_c_historic_quarter.json"
    },
    {
      "venue_id": "utrecht_wilhelminapark",
      "name": "Wilhelminapark",
      "lat": 52.0883412,
      "lon": 5.140572,
      "radius_m": 300,
      "base_scenario": "outdoors",
      "file": "nl-NL/utrecht/utrecht_wilhelminapark.json"
    },
    {
      "venue_id": "volendam_de_dijk_traditional_restaurant",
      "name": "De Dijk traditional restaurant",
      "lat": 52.4931831,
      "lon": 5.0752417,
      "radius_m": 75,
      "base_scenario": "restaurant",
      "file": "nl-NL/volendam/volendam_de_dijk_traditional_restaurant.json"
    },
    {
      "venue_id": "volendam_edam_volendam_museum",
      "name": "Edam-Volendam Museum",
      "lat": 52.495305,
      "lon": 5.0772948,
      "radius_m": 200,
      "base_scenario": "museum",
      "file": "nl-NL/volendam/volendam_edam_volendam_museum.json"
    },
    {
      "venue_id": "volendam_volendam_harbor",
      "name": "Volendam Harbor",
      "lat": 52.4928258,
      "lon": 5.0739637,
      "radius_m": 250,
      "base_scenario": "neighborhood",
      "file": "nl-NL/volendam/volendam_volendam_harbor.json"
    },
    {
      "venue_id": "volendam_volendam_marken_express",
      "name": "Volendam Marken Express",
      "lat": 52.4963759,
      "lon": 5.0682736,
      "radius_m": 200,
      "base_scenario": "train_station",
      "file": "nl-NL/volendam/volendam_volendam_marken_express.json"
    },
    {
      "venue_id": "volendam_volendam_old_village_center",
      "name": "Volendam old village center",
      "lat": 52.4961207,
      "lon": 5.0772473,
      "radius_m": 1000,
      "base_scenario": "neighborhood",
      "file": "nl-NL/volendam/volendam_volendam_old_village_center.json"
    },
    {
      "venue_id": "volendam_volendam_waterfront_promenade",
      "name": "Volendam waterfront promenade",
      "lat": 52.4963759,
      "lon": 5.0682736,
      "radius_m": 1000,
      "base_scenario": "neighborhood",
      "file": "nl-NL/volendam/volendam_volendam_waterfront_promenade.json"
    },
    {
      "venue_id": "zaandam_albert_heijn_museum_shop",
      "name": "Albert Heijn Museum Shop",
      "lat": 52.4719661,
      "lon": 4.8154645,
      "radius_m": 200,
      "base_scenario": "museum",
      "file": "nl-NL/zaandam/zaandam_albert_heijn_museum_shop.json"
    },
    {
      "venue_id": "zaandam_amsterdam_schiphol_airport",
      "name": "Amsterdam Schiphol Airport",
      "lat": 52.4424926,
      "lon": 4.8298607,
      "radius_m": 200,
      "base_scenario": "train_station",
      "file": "nl-NL/zaandam/zaandam_amsterdam_schiphol_airport.json"
    },
    {
      "venue_id": "zaandam_de_burcht_park_and_viewpoint",
      "name": "De Burcht park and viewpoint",
      "lat": 52.4424926,
      "lon": 4.8298607,
      "radius_m": 300,
      "base_scenario": "outdoors",
      "file": "nl-NL/zaandam/zaandam_de_burcht_park_and_viewpoint.json"
    },
    {
      "venue_id": "zaandam_de_gekroonde_poelenburg_windmill",
      "name": "De Gekroonde Poelenburg windmill",
      "lat": 52.4742109,
      "lon": 4.8176167,
      "radius_m": 250,
      "base_scenario": "neighborhood",
      "file": "nl-NL/zaandam/zaandam_de_gekroonde_poelenburg_windmill.json"
    },
    {
      "venue_id": "zaandam_de_vijf_broers_pancake_restaurant",
      "name": "De Vijf Broers pancake restaurant",
      "lat": 52.4424926,
      "lon": 4.8298607,
      "radius_m": 75,
      "base_scenario": "restaurant",
      "file": "nl-NL/zaandam/zaandam_de_vijf_broers_pancake_restaurant.json"
    },
    {
      "venue_id": "zaandam_gedempte_gracht_shopping_street",
      "name": "Gedempte Gracht shopping street",
      "lat": 52.4397754,
      "lon": 4.8234212,
      "radius_m": 75,
      "base_scenario": "shopping",
      "file": "nl-NL/zaandam/zaandam_gedempte_gracht_shopping_street.json"
    },
    {
      "venue_id": "zaandam_hudsons_bay_department_store",
      "name": "Hudson's Bay department store",
      "lat": 52.4424926,
      "lon": 4.8298607,
      "radius_m": 75,
      "base_scenario": "shopping",
      "file": "nl-NL/zaandam/zaandam_hudsons_bay_department_store.json"
    },
    {
      "venue_id": "zaandam_vvv_zaandam_tourist_information_center",
      "name": "VVV Zaandam tourist information center",
      "lat": 52.4382893,
      "lon": 4.8151972,
      "radius_m": 100,
      "base_scenario": null,
      "file": "nl-NL/zaandam/zaandam_vvv_zaandam_tourist_information_center.json"
    },
    {
      "venue_id": "zaandam_verkade_experience",
      "name": "Verkade Experience",
      "lat": 52.4424926,
      "lon": 4.8298607,
      "radius_m": 200,
      "base_scenario": "museum",
      "file": "nl-NL/zaandam/zaandam_verkade_experience.json"
    },
    {
      "venue_id": "zaandam_zaan_river_promenade",
      "name": "Zaan river promenade",
      "lat": 52.4424926,
      "lon": 4.8298607,
      "radius_m": 300,
      "base_scenario": "outdoors",
      "file": "nl-NL/zaandam/zaandam_zaan_river_promenade.json"
    },
    {
      "venue_id": "zaandam_zaandam_station",
      "name": "Zaandam Station",
      "lat": 52.4382493,
      "lon": 4.8137421,
      "radius_m": 200,
      "base_scenario": "train_station",
      "file": "nl-NL/zaandam/zaandam_zaandam_station.json"
    },
    {
      "venue_id": "zaandam_zaandam_city_center_historic_district",
      "name": "Zaandam city center historic district",
      "lat": 52.438095,
      "lon": 4.8159399,
      "radius_m": 1000,
      "base_scenario": "neighborhood",
      "file": "nl-NL/zaandam/zaandam_zaandam_city_center_historic_district.json"
    },
    {
      "venue_id": "zaandam_zaans_museum",
      "name": "Zaans Museum",
      "lat": 52.4735241,
      "lon": 4.8223781,
      "radius_m": 200,
      "base_scenario": "museum",
      "file": "nl-NL/zaandam/zaandam_zaans_museum.json"
    },
    {
      "venue_id": "zaandam_zaanse_schans",
      "name": "Zaanse Schans",
      "lat": 52.4750534,
      "lon": 4.8179761,
      "radius_m": 250,
      "base_scenario": "neighborhood",
      "file": "nl-NL/zaandam/zaandam_zaanse_schans.json"
    },
    {
      "venue_id": "zaandam_zaanse_schans_heritage_village_area",
      "name": "Zaanse Schans heritage village area",
      "lat": 52.4735241,
      "lon": 4.8223781,
      "radius_m": 1000,
      "base_scenario": "neighborhood",
      "file": "nl-NL/zaandam/zaandam_zaanse_schans_heritage_village_area.json"
    }
  ],
  "neighborhoods": []
}